{"status":0,"message":"Success","request_id":"23bec6100a19593b853f5e7b2c287ab8","count":1969,"data":[{"id":"8314157447236438749","title":"天安门广场","address":"北京市东城区东长安街","tel":"","category":"旅游景点:风景名胜","location":{"lat":39.90374,"lng":116.397827},"ad_info":{"adcode":110101,"province":"北京市","city":"北京市","district":"东城区"},"_distance":504},{"id":"11066399454800381842","title":"中华人民共和国公安部","address":"北京市东城区东长安街14号","tel":"010-65202114","category":"机构团体:公检法机构","location":{"lat":39.904989,"lng":116.405285},"ad_info":{"adcode":110101,"province":"北京市","city":"北京市","district":"东城区"},"_distance":0},{"id":"14172608746078225569","title":"中国国家博物馆","address":"北京市东城区东长安街16号","tel":"010-65116400","category":"文化场馆:博物馆","location":{"lat":39.905408,"lng":116.401397},"ad_info":{"adcode":110101,"province":"北京市","city":"北京市","district":"东城区"},"_distance":192},{"id":"10003132061733855891","title":"王府井","address":"北京市东城区地铁1号线八通线,地铁8号线","tel":"","category":"基础设施:交通设施:地铁站","location":{"lat":39.908106,"lng":116.411565},"ad_info":{"adcode":110101,"province":"北京市","city":"北京市","district":"东城区"},"_distance":638},{"id":"5866905815035848227","title":"故宫博物院","address":"北京市东城区景山前街4号","tel":"4009501925","category":"旅游景点:国家级景点","location":{"lat":39.91799,"lng":116.397027},"ad_info":{"adcode":110101,"province":"北京市","city":"北京市","district":"东城区"},"_distance":843},{"id":"4353329534249429455","title":"长安街","address":"北京市东城区广场西侧路与西长安街交叉口东150米","tel":"","category":"旅游景点:风景名胜","location":{"lat":39.907587,"lng":116.396641},"ad_info":{"adcode":110101,"province":"北京市","city":"北京市","district":"东城区"},"_distance":301},{"id":"11267928991231217519","title":"天安门广场-国旗","address":"北京市东城区景山前街4号天安门广场内","tel":"","category":"旅游景点:风景名胜","location":{"lat":39.90693,"lng":116.39757},"ad_info":{"adcode":110101,"province":"北京市","city":"北京市","district":"东城区"},"_distance":647},{"id":"9605849111224147090","title":"人民大会堂","address":"北京市西城区西长安街","tel":"010-63096156;010-83084776","category":"文化场馆:会展中心","location":{"lat":39.90517,"lng":116.39382},"ad_info":{"adcode":110102,"province":"北京市","city":"北京市","district":"西城区"},"_distance":813},{"id":"5133742017719212187","title":"王府井商业街","address":"北京市东城区王府井大街于帽儿胡同交汇处","tel":"","category":"购物:商业步行街","location":{"lat":39.914727,"lng":116.411193},"ad_info":{"adcode":110101,"province":"北京市","city":"北京市","district":"东城区"},"_distance":383},{"id":"15103389097764433256","title":"天安门","address":"北京市东城区东长安街","tel":"010-63095630","category":"旅游景点:国家级景点","location":{"lat":39.908823,"lng":116.39747},"ad_info":{"adcode":110101,"province":"北京市","city":"北京市","district":"东城区"},"_distance":721}]}